[
      {
            "feet":9573,
            "meters":2918,
            "latitude":23.3,
            "longitude":5.53333,
            "name":"Tahat",
            "regions":[
                  "Sahara Desert Ranges",
                  "Ahaggar Mountains"
            ],
            "countries":[
                  "Algeria"
            ],
            "continent":"Africa",
            "id":1
      },
      {
            "feet":13354,
            "meters":4070,
            "latitude":4.2,
            "longitude":9.18333,
            "name":"Cameroon Mountain",
            "regions":[
                  "West Africa Mountains",
                  "Cameroon Mountains"
            ],
            "countries":[
                  "Cameroon"
            ],
            "continent":"Africa",
            "id":2
      },
      {
            "feet":11204,
            "meters":3415,
            "latitude":19.8333,
            "longitude":18.5,
            "name":"Emi Koussi",
            "regions":[
                  "Sahara Desert Ranges",
                  "Tibesti"
            ],
            "countries":[
                  "Chad"
            ],
            "continent":"Africa",
            "id":3
      },
      {
            "feet":15740,
            "meters":4798,
            "latitude":0.433333,
            "longitude":29.9,
            "name":"Mount Emin",
            "regions":[
                  "East Africa Mountains",
                  "Ruwenzori"
            ],
            "countries":[
                  "Congo, Democratic Republic of the"
            ],
            "continent":"Africa",
            "id":4
      },
      {
            "feet":15470,
            "meters":4715,
            "latitude":0.433333,
            "longitude":29.9167,
            "name":"Mount Gessi",
            "regions":[
                  "East Africa Mountains",
                  "Ruwenzori"
            ],
            "countries":[
                  "Congo, Democratic Republic of the"
            ],
            "continent":"Africa",
            "id":5
      },
      {
            "feet":16042,
            "meters":4890,
            "latitude":0.4,
            "longitude":29.8833,
            "name":"Mount Speke",
            "regions":[
                  "East Africa Mountains",
                  "Ruwenzori"
            ],
            "countries":[
                  "Congo, Democratic Republic of the"
            ],
            "continent":"Africa",
            "id":6
      },
      {
            "feet":16763,
            "meters":5109,
            "latitude":0.383333,
            "longitude":29.8667,
            "name":"Mount Stanley",
            "regions":[
                  "East Africa Mountains",
                  "Ruwenzori"
            ],
            "countries":[
                  "Congo, Democratic Republic of the"
            ],
            "continent":"Africa",
            "id":7
      },
      {
            "feet":8651,
            "meters":2640,
            "latitude":28.5167,
            "longitude":33.95,
            "name":"Mount Sinai",
            "countries":[
                  "Egypt"
            ],
            "continent":"Africa",
            "id":8
      },
      {
            "feet":14928,
            "meters":4550,
            "latitude":13.25,
            "longitude":38.4,
            "name":"Ras Dashen",
            "regions":[
                  "Ethiopian Highlands"
            ],
            "countries":[
                  "Ethiopia"
            ],
            "continent":"Africa",
            "id":9
      },
      {
            "feet":17057,
            "meters":5199,
            "latitude":-0.15,
            "longitude":37.3,
            "name":"Mount Kenya",
            "regions":[
                  "East Africa Mountains",
                  "East Central Kenya"
            ],
            "countries":[
                  "Kenya"
            ],
            "continent":"Africa",
            "id":10
      },
      {
            "feet":9111,
            "meters":2777,
            "latitude":-0.915278,
            "longitude":36.456944,
            "name":"Mount Longonot",
            "countries":[
                  "Kenya"
            ],
            "continent":"Africa",
            "id":11
      },
      {
            "feet":9852,
            "meters":3003,
            "latitude":-15.9667,
            "longitude":35.6333,
            "name":"Mulanje",
            "regions":[
                  "Southern Africa",
                  "Malawi Highlands"
            ],
            "countries":[
                  "Malawi"
            ],
            "continent":"Africa",
            "id":12
      },
      {
            "feet":11844,
            "meters":3610,
            "latitude":31.574404,
            "longitude":-7.021079,
            "name":"Anghomar",
            "regions":[
                  "Atlas Mountains",
                  "High Atlas"
            ],
            "countries":[
                  "Morocco"
            ],
            "continent":"Africa",
            "id":13
      },
      {
            "feet":11864,
            "meters":3616,
            "latitude":31.1753,
            "longitude":-7.8254,
            "name":"Angour",
            "regions":[
                  "Atlas Mountains",
                  "High Atlas"
            ],
            "countries":[
                  "Morocco"
            ],
            "continent":"Africa",
            "id":14
      },
      {
            "feet":13346,
            "meters":4068,
            "latitude":31.5111,
            "longitude":-5.56972,
            "name":"m'goun",
            "regions":[
                  "Atlas Mountains",
                  "High Atlas"
            ],
            "countries":[
                  "Morocco",
                  "Morocco"
            ],
            "continent":"Africa",
            "id":15
      },
      {
            "feet":13665,
            "meters":4167,
            "latitude":31.0611,
            "longitude":-7.91547,
            "name":"Toubkal",
            "regions":[
                  "Atlas Mountains",
                  "High Atlas"
            ],
            "countries":[
                  "Morocco"
            ],
            "continent":"Africa",
            "id":16
      },
      {
            "feet":7995,
            "meters":2437,
            "latitude":-19.783333,
            "longitude":33.066667,
            "name":"Binga",
            "regions":[
                  "Southern Africa",
                  "Zimbabwe Plateau"
            ],
            "countries":[
                  "Mozambique"
            ],
            "continent":"Africa",
            "id":17
      },
      {
            "feet":8631,
            "meters":2631,
            "latitude":-21.2333,
            "longitude":55.7167,
            "name":"Piton de la Fournaise",
            "regions":[
                  "Indian Ocean Islands",
                  "Reunion Island"
            ],
            "countries":[
                  "Reunion"
            ],
            "continent":"Africa",
            "id":18
      },
      {
            "feet":10700,
            "meters":3070,
            "latitude":-21.0833,
            "longitude":55.4833,
            "name":"Piton des Neiges",
            "regions":[
                  "Indian Ocean Islands",
                  "Reunion Island"
            ],
            "countries":[
                  "Reunion"
            ],
            "continent":"Africa",
            "id":19
      },
      {
            "feet":11565,
            "meters":3525,
            "latitude":-1.28333,
            "longitude":30.0667,
            "name":"Gahinga",
            "regions":[
                  "East Africa Mountains",
                  "Virunga Mountains"
            ],
            "countries":[
                  "Rwanda",
                  "Uganda"
            ],
            "continent":"Africa",
            "id":20
      },
      {
            "feet":14787,
            "meters":4507,
            "latitude":-1.5,
            "longitude":29.45,
            "name":"Mount Karisimbi",
            "regions":[
                  "East Africa Mountains",
                  "Virunga Mountains"
            ],
            "countries":[
                  "Rwanda",
                  "Congo, Democratic Republic of the"
            ],
            "continent":"Africa",
            "id":21
      },
      {
            "feet":13540,
            "meters":4127,
            "latitude":-1.33333,
            "longitude":29.6167,
            "name":"Muhabura",
            "regions":[
                  "East Africa Mountains"
            ],
            "countries":[
                  "Rwanda",
                  "Uganda"
            ],
            "continent":"Africa",
            "id":22
      },
      {
            "feet":9856,
            "meters":3004,
            "latitude":-28.9167,
            "longitude":29.15,
            "name":"Cathedral Peak",
            "regions":[
                  "Southern Africa",
                  "Drakensberg"
            ],
            "countries":[
                  "South Africa"
            ],
            "continent":"Africa",
            "id":23
      },
      {
            "feet":11319,
            "meters":3450,
            "latitude":-29.2023,
            "longitude":29.3571,
            "name":"Mafadi",
            "regions":[
                  "Southern Africa",
                  "Drakensberg"
            ],
            "countries":[
                  "South Africa"
            ],
            "continent":"Africa",
            "id":24
      },
      {
            "feet":10768,
            "meters":3282,
            "latitude":-28.759081,
            "longitude":28.884644,
            "name":"Mont-aux-Sources",
            "regions":[
                  "Southern Africa",
                  "Drakensberg"
            ],
            "countries":[
                  "South Africa"
            ],
            "continent":"Africa",
            "id":25
      },
      {
            "feet":6650,
            "meters":2027,
            "latitude":-32.5167,
            "longitude":19.1667,
            "name":"Sneeuberg",
            "regions":[
                  "Southern Africa",
                  "Cape Ranges"
            ],
            "countries":[
                  "South Africa"
            ],
            "continent":"Africa",
            "id":26
      },
      {
            "feet":10449,
            "meters":3185,
            "latitude":3.946286,
            "longitude":32.910258,
            "name":"Kinyeti",
            "countries":[
                  "Sudan"
            ],
            "continent":"Africa",
            "id":27
      },
      {
            "feet":12080,
            "meters":3682,
            "latitude":-2.83333,
            "longitude":35.5833,
            "name":"Loolmalasin",
            "regions":[
                  "East Africa Mountains",
                  "Central East Africa Plateau"
            ],
            "countries":[
                  "Tanzania"
            ],
            "continent":"Africa",
            "id":28
      },
      {
            "feet":19340,
            "meters":5895,
            "latitude":-3.06667,
            "longitude":37.35,
            "name":"Mount Kilimanjaro",
            "regions":[
                  "East Africa Mountains",
                  "Northeast Tanzania"
            ],
            "countries":[
                  "Tanzania"
            ],
            "continent":"Africa",
            "id":29
      },
      {
            "feet":14979,
            "meters":4566,
            "latitude":-3.244392,
            "longitude":36.749999,
            "name":"Mount Meru",
            "regions":[
                  "East Africa Mountains",
                  "Northeast Tanzania"
            ],
            "countries":[
                  "Tanzania"
            ],
            "continent":"Africa",
            "id":30
      },
      {
            "feet":16763,
            "meters":5109,
            "latitude":0.380319,
            "longitude":29.873639,
            "name":"Margherita",
            "regions":[
                  "East Africa Mountains",
                  "Ruwenzori"
            ],
            "countries":[
                  "Uganda",
                  "Congo, Democratic Republic of the"
            ],
            "continent":"Africa",
            "id":31
      },
      {
            "feet":15889,
            "meters":4843,
            "latitude":0.366667,
            "longitude":29.8833,
            "name":"Mount Baker",
            "regions":[
                  "East Africa Mountains",
                  "Ruwenzori"
            ],
            "countries":[
                  "Uganda"
            ],
            "continent":"Africa",
            "id":32
      },
      {
            "feet":14178,
            "meters":4321,
            "latitude":1.13333,
            "longitude":34.55,
            "name":"Mount Elgon",
            "regions":[
                  "East Africa Mountains",
                  "Central East Africa Plateau"
            ],
            "countries":[
                  "Uganda",
                  "Kenya"
            ],
            "continent":"Africa",
            "id":33
      },
      {
            "feet":15178,
            "meters":4626,
            "latitude":0.333333,
            "longitude":29.8833,
            "name":"Mount Luigi",
            "regions":[
                  "East Africa Mountains",
                  "Ruwenzori"
            ],
            "countries":[
                  "Uganda"
            ],
            "continent":"Africa",
            "id":34
      },
      {
            "feet":6955,
            "meters":2120,
            "latitude":-72.11234,
            "longitude":23.2608,
            "name":"Joris Peak",
            "regions":[
                  "East Antarctica Ranges"
            ],
            "countries":[
                  "Antarctica",
                  "Antarctica"
            ],
            "continent":"Antarctica",
            "id":35
      },
      {
            "feet":10007,
            "meters":3050,
            "latitude":-72.15023,
            "longitude":23.26063,
            "name":"Martin's peak (Wideroefjellet)",
            "regions":[
                  "East Antarctica Ranges"
            ],
            "countries":[
                  "Antarctica",
                  "Antarctica"
            ],
            "continent":"Antarctica",
            "id":36
      },
      {
            "feet":7546,
            "meters":2300,
            "latitude":-66.667,
            "longitude":54.15,
            "name":"Mount Elkins",
            "regions":[
                  "East Antarctica Ranges",
                  "Wilkes Land Coast"
            ],
            "countries":[
                  "Antarctica"
            ],
            "continent":"Antarctica",
            "id":37
      },
      {
            "feet":12447,
            "meters":3794,
            "latitude":-77.5333,
            "longitude":167.15,
            "name":"Mount Erebus",
            "regions":[
                  "Transantarctic Mountains",
                  "Prince Albert-McMurdo"
            ],
            "countries":[
                  "Antarctica"
            ],
            "continent":"Antarctica",
            "id":38
      },
      {
            "feet":9055,
            "meters":2760,
            "latitude":-64.609749,
            "longitude":-63.446045,
            "name":"Mount Francais",
            "regions":[
                  "West Antarctica Ranges"
            ],
            "countries":[
                  "Antarctica",
                  "Antarctica"
            ],
            "continent":"Antarctica",
            "id":39
      },
      {
            "feet":14855,
            "meters":4528,
            "latitude":-84.3333,
            "longitude":166.417,
            "name":"Mount Kirkpatrick",
            "regions":[
                  "West Antarctica Ranges"
            ],
            "countries":[
                  "Antarctica"
            ],
            "continent":"Antarctica",
            "id":40
      },
      {
            "feet":16066,
            "meters":4897,
            "latitude":-78.5833,
            "longitude":-85.4167,
            "name":"Vinson Massif",
            "regions":[
                  "West Antarctica Ranges",
                  "Ellsworth Mountains"
            ],
            "countries":[
                  "Antarctica"
            ],
            "continent":"Antarctica",
            "id":41
      },
      {
            "feet":24581,
            "meters":7492,
            "latitude":36.4333,
            "longitude":71.9,
            "name":"Noshaq",
            "regions":[
                  "Central Asia Ranges",
                  "Hindu Kush "
            ],
            "countries":[
                  "Afghanistan"
            ],
            "continent":"Asia",
            "id":42
      },
      {
            "feet":23241,
            "meters":7084,
            "latitude":36.55,
            "longitude":71.9667,
            "name":"Shachaur",
            "regions":[
                  "Central Asia Ranges",
                  "Hindu Kush "
            ],
            "countries":[
                  "Afghanistan",
                  "Pakistan"
            ],
            "continent":"Asia",
            "id":43
      },
      {
            "feet":23997,
            "meters":7314,
            "latitude":27.8333,
            "longitude":89.2667,
            "name":"Chomolhari",
            "regions":[
                  "Himalaya ",
                  "Bhutan Himalaya"
            ],
            "countries":[
                  "Bhutan",
                  "China"
            ],
            "continent":"Asia",
            "id":44
      },
      {
            "feet":24836,
            "meters":7570,
            "latitude":28.03,
            "longitude":90.27,
            "name":"Gangkar Punsum",
            "regions":[
                  "Himalaya ",
                  "Bhutan Himalaya"
            ],
            "countries":[
                  "Bhutan",
                  "China"
            ],
            "continent":"Asia",
            "id":45
      },
      {
            "feet":22290,
            "meters":6794,
            "latitude":27.7025,
            "longitude":88.150278,
            "name":"Jichu Drake",
            "regions":[
                  "Himalaya ",
                  "Bhutan Himalaya"
            ],
            "countries":[
                  "Bhutan",
                  "China"
            ],
            "continent":"Asia",
            "id":46
      },
      {
            "feet":24731,
            "meters":7538,
            "latitude":28.2333,
            "longitude":90.6,
            "name":"Kula Kangri",
            "regions":[
                  "Himalaya ",
                  "Bhutan Himalaya"
            ],
            "countries":[
                  "Bhutan"
            ],
            "continent":"Asia",
            "id":47
      },
      {
            "feet":20610,
            "meters":6282,
            "latitude":34.798333,
            "longitude":99.4625,
            "name":"Amne Machin",
            "countries":[
                  "China"
            ],
            "continent":"Asia",
            "id":48
      },
      {
            "feet":17864,
            "meters":5445,
            "latitude":43.75,
            "longitude":88.5333,
            "name":"Bogda Peak",
            "regions":[
                  "Tien Shan",
                  "Eastern Tien Shan"
            ],
            "countries":[
                  "China"
            ],
            "continent":"Asia",
            "id":49
      },
      {
            "feet":24868,
            "meters":7580,
            "latitude":28.0253,
            "longitude":86.9142,
            "name":"Changtse",
            "regions":[
                  "Himalaya ",
                  "Central Nepal Himalaya"
            ],
            "countries":[
                  "China"
            ],
            "continent":"Asia",
            "id":50
      },
      {
            "feet":24117,
            "meters":7351,
            "latitude":28.073798,
            "longitude":86.613979,
            "name":"Cho Aui (Nangpai Gosum I)",
            "regions":[
                  "Himalaya ",
                  "Central Nepal Himalaya"
            ],
            "countries":[
                  "China",
                  "Nepal"
            ],
            "continent":"Asia",
            "id":51
      },
      {
            "feet":10167,
            "meters":3099,
            "latitude":29.5333,
            "longitude":103.35,
            "name":"Emei Shan",
            "regions":[
                  "West Sichuan Ranges"
            ],
            "countries":[
                  "China"
            ],
            "continent":"Asia",
            "id":52
      },
      {
            "feet":23405,
            "meters":7134,
            "latitude":27.9667,
            "longitude":86.3333,
            "name":"Gauri Sankar",
            "countries":[
                  "China",
                  "Nepal"
            ],
            "continent":"Asia",
            "id":53
      },
      {
            "feet":17191,
            "meters":5240,
            "latitude":29.7,
            "longitude":91.0333,
            "name":"Gompe Utse",
            "regions":[
                  "Central Tibetan Plateau"
            ],
            "countries":[
                  "China"
            ],
            "continent":"Asia",
            "id":54
      },
      {
            "feet":24921,
            "meters":7596,
            "latitude":29.1333,
            "longitude":103.333,
            "name":"Gongga Shan",
            "regions":[
                  "West Sichuan Ranges"
            ],
            "countries":[
                  "China"
            ],
            "continent":"Asia",
            "id":55
      },
      {
            "feet":25242,
            "meters":7694,
            "latitude":30.4333,
            "longitude":81.2833,
            "name":"Gurla Mandata",
            "regions":[
                  "Himalaya "
            ],
            "countries":[
                  "China"
            ],
            "continent":"Asia",
            "id":56
      },
      {
            "feet":25242,
            "meters":7694,
            "latitude":30.2833,
            "longitude":81.2833,
            "name":"Gurla Mandhata",
            "regions":[
                  "Central Tibetan Plateau"
            ],
            "countries":[
                  "China"
            ],
            "continent":"Asia",
            "id":57
      },
      {
            "feet":17703,
            "meters":5396,
            "latitude":27.3394,
            "longitude":100.191,
            "name":"Haba Xue Shan",
            "regions":[
                  "Himalaya "
            ],
            "countries":[
                  "China",
                  "China"
            ],
            "continent":"Asia",
            "id":58
      },
      {
            "feet":7087,
            "meters":2160,
            "latitude":34.29,
            "longitude":110.05,
            "name":"Hua Shan",
            "countries":[
                  "China"
            ],
            "continent":"Asia",
            "id":59
      },
      {
            "feet":22028,
            "meters":6714,
            "latitude":31.0667,
            "longitude":81.3167,
            "name":"Kailas",
            "regions":[
                  "Gangdisi Shanmai"
            ],
            "countries":[
                  "China"
            ],
            "continent":"Asia",
            "id":60
      },
      {
            "feet":21348,
            "meters":6507,
            "latitude":28.0167,
            "longitude":87.0,
            "name":"Kartse",
            "regions":[
                  "Himalaya ",
                  "Central Nepal Himalaya"
            ],
            "countries":[
                  "China"
            ],
            "continent":"Asia",
            "id":61
      },
      {
            "feet":23710,
            "meters":7227,
            "latitude":28.05,
            "longitude":86.9667,
            "name":"Khartaphu",
            "regions":[
                  "Himalaya ",
                  "Central Nepal Himalaya"
            ],
            "countries":[
                  "China"
            ],
            "continent":"Asia",
            "id":62
      },
      {
            "feet":25326,
            "meters":7719,
            "latitude":38.6667,
            "longitude":75.35,
            "name":"Kongur",
            "regions":[
                  "Kunlun"
            ],
            "countries":[
                  "China"
            ],
            "continent":"Asia",
            "id":63
      },
      {
            "feet":23638,
            "meters":7205,
            "latitude":28.381389,
            "longitude":85.683611,
            "name":"Langtang Ri",
            "regions":[
                  "Himalaya ",
                  "Central Nepal Himalaya"
            ],
            "countries":[
                  "China",
                  "Nepal"
            ],
            "continent":"Asia",
            "id":64
      },
      {
            "feet":23114,
            "meters":7045,
            "latitude":28.037811,
            "longitude":86.969831,
            "name":"Lhakpa Ri",
            "regions":[
                  "Himalaya "
            ],
            "countries":[
                  "China",
                  "Nepal"
            ],
            "continent":"Asia",
            "id":65
      },
      {
            "feet":27657,
            "meters":8430,
            "latitude":27.9667,
            "longitude":86.95,
            "name":"Lhotse middle",
            "regions":[
                  "Himalaya ",
                  "Central Nepal Himalaya"
            ],
            "countries":[
                  "China",
                  "Nepal"
            ],
            "continent":"Asia",
            "id":66
      },
      {
            "feet":20545,
            "meters":6262,
            "latitude":33.4667,
            "longitude":86.0,
            "name":"Mayer Kangri",
            "countries":[
                  "China"
            ],
            "continent":"Asia",
            "id":67
      },
      {
            "feet":23555,
            "meters":7181,
            "latitude":27.9667,
            "longitude":86.4333,
            "name":"Melungtse",
            "countries":[
                  "China",
                  "Nepal"
            ],
            "continent":"Asia",
            "id":68
      },
      {
            "feet":23559,
            "meters":7181,
            "latitude":27.972004,
            "longitude":86.432662,
            "name":"Menlungtse",
            "regions":[
                  "Himalaya ",
                  "Central Nepal Himalaya"
            ],
            "countries":[
                  "China"
            ],
            "continent":"Asia",
            "id":69
      },
      {
            "feet":24790,
            "meters":7556,
            "latitude":29.5667,
            "longitude":101.883,
            "name":"Minya Konka",
            "regions":[
                  "West Sichuan Ranges"
            ],
            "countries":[
                  "China"
            ],
            "continent":"Asia",
            "id":70
      },
      {
            "feet":24758,
            "meters":7546,
            "latitude":38.2833,
            "longitude":75.1167,
            "name":"Muztagh Ata",
            "regions":[
                  "Kunlun"
            ],
            "countries":[
                  "China"
            ],
            "continent":"Asia",
            "id":71
      },
      {
            "feet":25531,
            "meters":7782,
            "latitude":29.6667,
            "longitude":95.1667,
            "name":"Namche Barwa",
            "regions":[
                  "Himalaya ",
                  "Assam Himalaya"
            ],
            "countries":[
                  "China"
            ],
            "continent":"Asia",
            "id":72
      },
      {
            "feet":23641,
            "meters":7206,
            "latitude":28.9333,
            "longitude":90.1667,
            "name":"Nojinkangsang",
            "regions":[
                  "Himalaya "
            ],
            "countries":[
                  "China"
            ],
            "continent":"Asia",
            "id":73
      },
      {
            "feet":23008,
            "meters":7013,
            "latitude":28.1167,
            "longitude":86.6333,
            "name":"Palung Ri",
            "regions":[
                  "Himalaya ",
                  "Central Nepal Himalaya"
            ],
            "countries":[
                  "China"
            ],
            "continent":"Asia",
            "id":74
      },
      {
            "feet":25134,
            "meters":7661,
            "latitude":28.354998,
            "longitude":85.809721,
            "name":"Phola Gangchen (aka Molamenqing) (\u0436\u2018\u00a9\u0436\u2039\u2030\u0439\u2014\u0401\u0439\u045c\u2019)",
            "regions":[
                  "Himalaya "
            ],
            "countries":[
                  "China"
            ],
            "continent":"Asia",
            "id":75
      },
      {
            "feet":23080,
            "meters":7035,
            "latitude":28.85,
            "longitude":84.3667,
            "name":"Ratna Chuli",
            "regions":[
                  "Himalaya "
            ],
            "countries":[
                  "China",
                  "Nepal"
            ],
            "continent":"Asia",
            "id":76
      },
      {
            "feet":22949,
            "meters":6995,
            "latitude":31.5167,
            "longitude":94.3,
            "name":"Sepu Kangri",
            "countries":[
                  "China"
            ],
            "continent":"Asia",
            "id":77
      },
      {
            "feet":26289,
            "meters":8013,
            "latitude":28.35,
            "longitude":85.7833,
            "name":"Shisha Pangma",
            "regions":[
                  "Himalaya ",
                  "Central Nepal Himalaya"
            ],
            "countries":[
                  "China"
            ],
            "continent":"Asia",
            "id":78
      },
      {
            "feet":24754,
            "meters":7545,
            "latitude":35.9264,
            "longitude":76.5675,
            "name":"Skyang Kangri",
            "regions":[
                  "Central Asia Ranges",
                  "Karakoram "
            ],
            "countries":[
                  "China"
            ],
            "continent":"Asia",
            "id":79
      },
      {
            "feet":22923,
            "meters":6987,
            "latitude":36.4125,
            "longitude":87.384167,
            "name":"Ulugh Muztagh",
            "regions":[
                  "Kunlun"
            ],
            "countries":[
                  "China"
            ],
            "continent":"Asia",
            "id":80
      },
      {
            "feet":10033,
            "meters":3058,
            "latitude":0.0,
            "longitude":113.417,
            "name":"Wutai Shan",
            "regions":[
                  "North Central China"
            ],
            "countries":[
                  "China"
            ],
            "continent":"Asia",
            "id":81
      },
      {
            "feet":18359,
            "meters":5596,
            "latitude":0.0,
            "longitude":100.167,
            "name":"Yulong Xue Shan",
            "regions":[
                  "Parallel Gorges Area"
            ],
            "countries":[
                  "China"
            ],
            "continent":"Asia",
            "id":82
      },
      {
            "feet":20269,
            "meters":6178,
            "latitude":35.6667,
            "longitude":94.2167,
            "name":"Yuzhu Feng",
            "regions":[
                  "Kunlun"
            ],
            "countries":[
                  "China"
            ],
            "continent":"Asia",
            "id":83
      },
      {
            "feet":22874,
            "meters":6972,
            "latitude":34.3667,
            "longitude":85.7667,
            "name":"Zanzber Kangri",
            "countries":[
                  "China"
            ],
            "continent":"Asia",
            "id":84
      },
      {
            "feet":22312,
            "meters":6801,
            "latitude":27.95,
            "longitude":86.3667,
            "name":"Drangnag Ri",
            "regions":[
                  "Himalaya ",
                  "Central Nepal Himalaya"
            ],
            "continent":"Asia",
            "id":85
      },
      {
            "feet":20312,
            "meters":6191,
            "latitude":30.28529,
            "longitude":80.651983,
            "name":"Adi Kailash",
            "regions":[
                  "Himalaya ",
                  "Garhwal Himalaya"
            ],
            "countries":[
                  "India"
            ],
            "continent":"Asia",
            "id":86
      },
      {
            "feet":13593,
            "meters":4143,
            "latitude":34.020048,
            "longitude":74.337015,
            "name":"Affarwat",
            "regions":[
                  "Himalaya "
            ],
            "countries":[
                  "India",
                  "Pakistan"
            ],
            "continent":"Asia",
            "id":87
      },
      {
            "feet":8842,
            "meters":2695,
            "latitude":10.1666,
            "longitude":77.0666,
            "name":"Anamudi",
            "regions":[
                  "Indian Subcontinent",
                  "Cardamom Hills"
            ],
            "countries":[
                  "India"
            ],
            "continent":"Asia",
            "id":88
      },
      {
            "feet":20722,
            "meters":6316,
            "latitude":31.0,
            "longitude":78.55,
            "name":"Banderpunch",
            "regions":[
                  "Himalaya ",
                  "Garhwal Himalaya"
            ],
            "countries":[
                  "India"
            ],
            "continent":"Asia",
            "id":89
      },
      {
            "feet":22493,
            "meters":6856,
            "latitude":30.85,
            "longitude":79.15,
            "name":"Bhagirathi",
            "regions":[
                  "Himalaya ",
                  "Garhwal Himalaya"
            ],
            "countries":[
                  "India"
            ],
            "continent":"Asia",
            "id":90
      },
      {
            "feet":20741,
            "meters":6322,
            "latitude":30.290984,
            "longitude":80.041051,
            "name":"Changuch",
            "regions":[
                  "Himalaya ",
                  "Garhwal Himalaya"
            ],
            "countries":[
                  "India"
            ],
            "continent":"Asia",
            "id":91
      },
      {
            "feet":23418,
            "meters":7138,
            "latitude":30.7333,
            "longitude":79.2833,
            "name":"Chaukhamba 1",
            "regions":[
                  "Himalaya ",
                  "Garhwal Himalaya"
            ],
            "countries":[
                  "India"
            ],
            "continent":"Asia",
            "id":92
      },
      {
            "feet":19688,
            "meters":6001,
            "latitude":32.2114,
            "longitude":77.3972,
            "name":"Deo Tibba",
            "regions":[
                  "Himalaya "
            ],
            "countries":[
                  "India"
            ],
            "continent":"Asia",
            "id":93
      },
      {
            "feet":25869,
            "meters":7885,
            "latitude":36.3333,
            "longitude":75.1833,
            "name":"Distaghil Sar",
            "regions":[
                  "Central Asia Ranges",
                  "Karakoram "
            ],
            "countries":[
                  "India"
            ],
            "continent":"Asia",
            "id":94
      },
      {
            "feet":23182,
            "meters":7066,
            "latitude":30.6666,
            "longitude":79.8666,
            "name":"Dunagiri",
            "regions":[
                  "Himalaya ",
                  "Garhwal Himalaya"
            ],
            "countries":[
                  "India"
            ],
            "continent":"Asia",
            "id":95
      },
      {
            "feet":19321,
            "meters":5889,
            "latitude":33.110523,
            "longitude":76.891251,
            "name":"Forgotten Peak",
            "regions":[
                  "Himalaya "
            ],
            "countries":[
                  "India",
                  "India"
            ],
            "continent":"Asia",
            "id":96
      },
      {
            "feet":17388,
            "meters":5300,
            "latitude":32.961686,
            "longitude":77.257097,
            "name":"Gumburanjo",
            "regions":[
                  "Himalaya ",
                  "Punjab Himalaya"
            ],
            "countries":[
                  "India"
            ],
            "continent":"Asia",
            "id":97
      },
      {
            "feet":16890,
            "meters":5148,
            "latitude":33.7833,
            "longitude":76.0167,
            "name":"Harmukh",
            "countries":[
                  "India"
            ],
            "continent":"Asia",
            "id":98
      },
      {
            "feet":20955,
            "meters":6387,
            "latitude":31.0112,
            "longitude":78.3412,
            "name":"Kalanag",
            "regions":[
                  "Himalaya ",
                  "Garhwal Himalaya"
            ],
            "countries":[
                  "India"
            ],
            "continent":"Asia",
            "id":99
      },
      {
            "feet":25447,
            "meters":7756,
            "latitude":30.920278,
            "longitude":79.593611,
            "name":"Kamet",
            "regions":[
                  "Himalaya ",
                  "Garhwal Himalaya"
            ],
            "countries":[
                  "India",
                  "China"
            ],
            "continent":"Asia",
            "id":100
      },
      {
            "feet":22411,
            "meters":6831,
            "latitude":30.7833,
            "longitude":79.0667,
            "name":"Kedarnath Dome",
            "regions":[
                  "Himalaya ",
                  "Garhwal Himalaya"
            ],
            "countries":[
                  "India"
            ],
            "continent":"Asia",
            "id":101
      },
      {
            "feet":22769,
            "meters":6940,
            "latitude":30.7833,
            "longitude":79.0667,
            "name":"kedarnath",
            "regions":[
                  "Himalaya ",
                  "Garhwal Himalaya"
            ],
            "countries":[
                  "India"
            ],
            "continent":"Asia",
            "id":102
      },
      {
            "feet":22362,
            "meters":6816,
            "latitude":31.901935,
            "longitude":78.74249,
            "name":"Leo Pargial",
            "regions":[
                  "Himalaya ",
                  "Punjab Himalaya"
            ],
            "countries":[
                  "India",
                  "China"
            ],
            "continent":"Asia",
            "id":103
      },
      {
            "feet":13013,
            "meters":3966,
            "latitude":34.152443,
            "longitude":74.987268,
            "name":"Mahadev",
            "regions":[
                  "Himalaya "
            ],
            "countries":[
                  "India"
            ],
            "continent":"Asia",
            "id":104
      },
      {
            "feet":22320,
            "meters":6803,
            "latitude":30.274486,
            "longitude":79.877472,
            "name":"Maiktoli",
            "regions":[
                  "Himalaya ",
                  "Garhwal Himalaya"
            ],
            "countries":[
                  "India",
                  "India"
            ],
            "continent":"Asia",
            "id":105
      },
      {
            "feet":24659,
            "meters":7516,
            "latitude":35.14083,
            "longitude":77.5775,
            "name":"Mamostong Kangri - I",
            "regions":[
                  "Indian Subcontinent"
            ],
            "countries":[
                  "India"
            ],
            "continent":"Asia",
            "id":106
      },
      {
            "feet":20554,
            "meters":6265,
            "latitude":32.212528,
            "longitude":77.553862,
            "name":"Mount Debachen",
            "regions":[
                  "Himalaya ",
                  "Punjab Himalaya"
            ],
            "countries":[
                  "India"
            ],
            "continent":"Asia",
            "id":107
      },
      {
            "feet":20299,
            "meters":6187,
            "latitude":32.1044,
            "longitude":77.6806,
            "name":"Mount Rubal Kang",
            "regions":[
                  "Himalaya ",
                  "Garhwal Himalaya"
            ],
            "countries":[
                  "India"
            ],
            "continent":"Asia",
            "id":108
      },
      {
            "feet":15256,
            "meters":4650,
            "latitude":32.287392,
            "longitude":76.390024,
            "name":"Mun Peak",
            "regions":[
                  "Himalaya ",
                  "Punjab Himalaya"
            ],
            "countries":[
                  "India"
            ],
            "continent":"Asia",
            "id":109
      },
      {
            "feet":25645,
            "meters":7817,
            "latitude":30.3833,
            "longitude":79.9667,
            "name":"Nanda Devi",
            "regions":[
                  "Himalaya ",
                  "Garhwal Himalaya"
            ],
            "countries":[
                  "India"
            ],
            "continent":"Asia",
            "id":110
      },
      {
            "feet":20699,
            "meters":6309,
            "latitude":30.4666,
            "longitude":79.7166,
            "name":"Nanda Ghunti",
            "regions":[
                  "Himalaya ",
                  "Garhwal Himalaya"
            ],
            "countries":[
                  "India"
            ],
            "continent":"Asia",
            "id":111
      },
      {
            "feet":21690,
            "meters":6611,
            "latitude":30.301667,
            "longitude":79.975833,
            "name":"Nandakhat",
            "regions":[
                  "Himalaya ",
                  "Garhwal Himalaya"
            ],
            "countries":[
                  "India"
            ],
            "continent":"Asia",
            "id":112
      },
      {
            "feet":22510,
            "meters":6861,
            "latitude":30.2666,
            "longitude":80.0666,
            "name":"Nandakot",
            "regions":[
                  "Himalaya ",
                  "Garhwal Himalaya"
            ],
            "countries":[
                  "India"
            ],
            "continent":"Asia",
            "id":113
      },
      {
            "feet":21643,
            "meters":6597,
            "latitude":0.0,
            "longitude":79.4,
            "name":"Nilkantha",
            "regions":[
                  "Himalaya "
            ],
            "countries":[
                  "India"
            ],
            "continent":"Asia",
            "id":114
      },
      {
            "feet":23410,
            "meters":7135,
            "latitude":33.98077,
            "longitude":76.020584,
            "name":"Nun Kun",
            "regions":[
                  "Himalaya ",
                  "Punjab Himalaya"
            ],
            "countries":[
                  "India"
            ],
            "continent":"Asia",
            "id":115
      },
      {
            "feet":20312,
            "meters":6191,
            "latitude":30.198803,
            "longitude":81.034704,
            "name":"Om Parvat",
            "regions":[
                  "Himalaya ",
                  "Garhwal Himalaya"
            ],
            "countries":[
                  "India"
            ],
            "continent":"Asia",
            "id":116
      },
      {
            "feet":22652,
            "meters":6904,
            "latitude":30.22,
            "longitude":80.42,
            "name":"Panchachuli",
            "regions":[
                  "Himalaya ",
                  "Garhwal Himalaya"
            ],
            "countries":[
                  "India",
                  "India"
            ],
            "continent":"Asia",
            "id":117
      },
      {
            "feet":21860,
            "meters":6663,
            "latitude":30.2833,
            "longitude":79.95,
            "name":"Panwali Dwar",
            "regions":[
                  "Himalaya ",
                  "Garhwal Himalaya"
            ],
            "countries":[
                  "India"
            ],
            "continent":"Asia",
            "id":118
      },
      {
            "feet":21499,
            "meters":6553,
            "latitude":31.45,
            "longitude":78.5167,
            "name":"Rangrik Rang",
            "regions":[
                  "Himalaya ",
                  "Garhwal Himalaya"
            ],
            "countries":[
                  "India"
            ],
            "continent":"Asia",
            "id":119
      },
      {
            "feet":22362,
            "meters":6816,
            "latitude":31.884373,
            "longitude":78.735624,
            "name":"Reo pargil",
            "regions":[
                  "Himalaya "
            ],
            "countries":[
                  "India"
            ],
            "continent":"Asia",
            "id":120
      },
      {
            "feet":19091,
            "meters":5819,
            "latitude":30.81038,
            "longitude":78.898831,
            "name":"Rudragaira",
            "regions":[
                  "Indian Subcontinent"
            ],
            "countries":[
                  "India"
            ],
            "continent":"Asia",
            "id":121
      },
      {
            "feet":25170,
            "meters":7672,
            "latitude":34.8667,
            "longitude":77.75,
            "name":"Sasir Kangri",
            "regions":[
                  "Central Asia Ranges",
                  "Karakoram "
            ],
            "countries":[
                  "India"
            ],
            "continent":"Asia",
            "id":122
      },
      {
            "feet":20082,
            "meters":6121,
            "latitude":33.986111,
            "longitude":77.4425,
            "name":"Stok Kangri",
            "regions":[
                  "Himalaya "
            ],
            "countries":[
                  "India"
            ],
            "continent":"Asia",
            "id":123
      },
      {
            "feet":20512,
            "meters":6252,
            "latitude":31.1,
            "longitude":78.5,
            "name":"Swargarohini",
            "regions":[
                  "Himalaya ",
                  "Garhwal Himalaya"
            ],
            "countries":[
                  "India"
            ],
            "continent":"Asia",
            "id":124
      },
      {
            "feet":15555,
            "meters":4741,
            "latitude":33.89333,
            "longitude":74.48861,
            "name":"Tattakuti",
            "regions":[
                  "Himalaya "
            ],
            "countries":[
                  "India"
            ],
            "continent":"Asia",
            "id":125
      },
      {
            "feet":23360,
            "meters":7120,
            "latitude":30.3167,
            "longitude":79.7833,
            "name":"Trisul",
            "regions":[
                  "Himalaya ",
                  "Garhwal Himalaya"
            ],
            "countries":[
                  "India"
            ],
            "continent":"Asia",
            "id":126
      },
      {
            "feet":10000,
            "meters":3048,
            "latitude":-8.35,
            "longitude":115.5,
            "name":"Gunung Agung",
            "regions":[
                  "Malay Archipelago",
                  "Nusa Tengarra"
            ],
            "countries":[
                  "Indonesia"
            ],
            "continent":"Asia",
            "id":127
      },
      {
            "feet":10072,
            "meters":3070,
            "latitude":-6.91667,
            "longitude":108.4,
            "name":"Gunung Ciremai",
            "regions":[
                  "Southeast Asia",
                  "Malay Peninsula"
            ],
            "countries":[
                  "Indonesia"
            ],
            "continent":"Asia",
            "id":128
      },
      {
            "feet":9550,
            "meters":2911,
            "latitude":-7.55,
            "longitude":110.433,
            "name":"Gunung Merapi",
            "regions":[
                  "Malay Archipelago",
                  "Java "
            ],
            "countries":[
                  "Indonesia"
            ],
            "continent":"Asia",
            "id":129
      },
      {
            "feet":12224,
            "meters":3726,
            "latitude":-8.43333,
            "longitude":116.467,
            "name":"Gunung Rinjani",
            "countries":[
                  "Indonesia"
            ],
            "continent":"Asia",
            "id":130
      },
      {
            "feet":8041,
            "meters":2451,
            "latitude":3.16667,
            "longitude":98.4,
            "name":"Gunung Sinabung",
            "countries":[
                  "Indonesia"
            ],
            "continent":"Asia",
            "id":131
      },
      {
            "feet":9705,
            "meters":2958,
            "latitude":-6.78,
            "longitude":106.98,
            "name":"Mount Gede",
            "countries":[
                  "Indonesia",
                  "Indonesia"
            ],
            "continent":"Asia",
            "id":132
      },
      {
            "feet":12467,
            "meters":3800,
            "latitude":-1.7,
            "longitude":101.267,
            "name":"Mount Kerinchi",
            "regions":[
                  "Malay Archipelago",
                  "Sumatra"
            ],
            "countries":[
                  "Indonesia"
            ],
            "continent":"Asia",
            "id":133
      },
      {
            "feet":12224,
            "meters":3726,
            "latitude":-8.410225,
            "longitude":116.458554,
            "name":"Mount Rinjani - Lombok",
            "regions":[
                  "Malay Archipelago",
                  "Nusa Tengarra"
            ],
            "countries":[
                  "Indonesia",
                  "Indonesia"
            ],
            "continent":"Asia",
            "id":134
      },
      {
            "feet":11247,
            "meters":3428,
            "latitude":-7.241389,
            "longitude":109.214444,
            "name":"Mount Slamet",
            "regions":[
                  "Malay Archipelago",
                  "Java "
            ],
            "countries":[
                  "Indonesia"
            ],
            "continent":"Asia",
            "id":135
      },
      {
            "feet":7254,
            "meters":2211,
            "latitude":-6.71542,
            "longitude":106.734,
            "name":"SALAK I",
            "regions":[
                  "Southeast Asia"
            ],
            "countries":[
                  "Indonesia"
            ],
            "continent":"Asia",
            "id":136
      },
      {
            "feet":12060,
            "meters":3676,
            "latitude":-8.107618,
            "longitude":112.922536,
            "name":"Semeru",
            "countries":[
                  "Indonesia"
            ],
            "continent":"Asia",
            "id":137
      },
      {
            "feet":15912,
            "meters":4850,
            "latitude":36.2239,
            "longitude":50.5757,
            "name":"Alam Kuh",
            "regions":[
                  "Iranian Plateau",
                  "Alborz"
            ],
            "countries":[
                  "Iran"
            ],
            "continent":"Asia",
            "id":138
      },
      {
            "feet":11319,
            "meters":3450,
            "latitude":34.2708,
            "longitude":54.2065,
            "name":"alvand",
            "regions":[
                  "Iranian Plateau",
                  "Central Iranian Plateau"
            ],
            "countries":[
                  "Iran",
                  "Iran"
            ],
            "continent":"Asia",
            "id":139
      },
      {
            "feet":7287,
            "meters":2221,
            "latitude":35.3167,
            "longitude":47.0,
            "name":"Awiar",
            "regions":[
                  "Iranian Plateau"
            ],
            "countries":[
                  "Iran"
            ],
            "continent":"Asia",
            "id":140
      },
      {
            "feet":13287,
            "meters":4050,
            "latitude":35.785165,
            "longitude":52.115021,
            "name":"Changizchal",
            "regions":[
                  "Iranian Plateau",
                  "Alborz"
            ],
            "countries":[
                  "Iran"
            ],
            "continent":"Asia",
            "id":141
      },
      {
            "feet":18602,
            "meters":5670,
            "latitude":35.9558,
            "longitude":52.1086,
            "name":"Damavand",
            "regions":[
                  "Iranian Plateau",
                  "Alborz"
            ],
            "countries":[
                  "Iran"
            ],
            "continent":"Asia",
            "id":142
      },
      {
            "feet":13944,
            "meters":4250,
            "latitude":35.766154,
            "longitude":52.230849,
            "name":"Dobarar",
            "regions":[
                  "Iranian Plateau",
                  "Alborz"
            ],
            "countries":[
                  "Iran"
            ],
            "continent":"Asia",
            "id":143
      },
      {
            "feet":11155,
            "meters":3400,
            "latitude":34.659758,
            "longitude":48.459492,
            "name":"Ghezel Arsalan",
            "regions":[
                  "Iranian Plateau",
                  "Northwest Iran Ranges"
            ],
            "countries":[
                  "Iran",
                  "Iran"
            ],
            "continent":"Asia",
            "id":144
      },
      {
            "feet":10335,
            "meters":3150,
            "latitude":31.5333,
            "longitude":50.85,
            "name":"Jahanbin-na",
            "regions":[
                  "Iranian Plateau"
            ],
            "countries":[
                  "Iran"
            ],
            "continent":"Asia",
            "id":145
      },
      {
            "feet":12762,
            "meters":3890,
            "latitude":33.45613,
            "longitude":51.80023,
            "name":"Karkas",
            "regions":[
                  "Iranian Plateau",
                  "Central Iranian Plateau"
            ],
            "countries":[
                  "Iran",
                  "Iran"
            ],
            "continent":"Asia",
            "id":146
      },
      {
            "feet":14354,
            "meters":4375,
            "latitude":36.108201,
            "longitude":51.588192,
            "name":"Khole-no",
            "regions":[
                  "Iranian Plateau",
                  "Alborz"
            ],
            "countries":[
                  "Iran"
            ],
            "continent":"Asia",
            "id":147
      },
      {
            "feet":10827,
            "meters":3300,
            "latitude":35.513,
            "longitude":51.273,
            "name":"Kolakchal",
            "regions":[
                  "Iranian Plateau",
                  "Alborz"
            ],
            "countries":[
                  "Iran"
            ],
            "continent":"Asia",
            "id":148
      },
      {
            "feet":9383,
            "meters":2860,
            "latitude":37.0,
            "longitude":46.0,
            "name":"Misho",
            "regions":[
                  "Iranian Plateau",
                  "Northwest Iran Ranges"
            ],
            "countries":[
                  "Iran"
            ],
            "continent":"Asia",
            "id":149
      },
      {
            "feet":12175,
            "meters":3711,
            "latitude":37.730607,
            "longitude":46.499462,
            "name":"Sahand",
            "regions":[
                  "Iranian Plateau",
                  "Northwest Iran Ranges"
            ],
            "countries":[
                  "Iran"
            ],
            "continent":"Asia",
            "id":150
      },
      {
            "feet":11122,
            "meters":3390,
            "latitude":35.03,
            "longitude":46.25,
            "name":"Shaho",
            "regions":[
                  "Zagros Mountains",
                  "North Central Zagros"
            ],
            "countries":[
                  "Iran"
            ],
            "continent":"Asia",
            "id":151
      },
      {
            "feet":9186,
            "meters":2800,
            "latitude":35.731743,
            "longitude":52.025843,
            "name":"Telkamar",
            "regions":[
                  "Iranian Plateau",
                  "Alborz"
            ],
            "countries":[
                  "Iran"
            ],
            "continent":"Asia",
            "id":152
      },
      {
            "feet":13005,
            "meters":3964,
            "latitude":35.53,
            "longitude":51.25,
            "name":"Touchal",
            "regions":[
                  "Iranian Plateau",
                  "Alborz"
            ],
            "countries":[
                  "Iran"
            ],
            "continent":"Asia",
            "id":153
      },
      {
            "feet":12631,
            "meters":3850,
            "latitude":35.706377,
            "longitude":52.227974,
            "name":"Zarin kooh",
            "regions":[
                  "Iranian Plateau",
                  "Alborz"
            ],
            "countries":[
                  "Iran"
            ],
            "continent":"Asia",
            "id":154
      },
      {
            "feet":10236,
            "meters":3120,
            "latitude":35.465284,
            "longitude":138.167496,
            "name":"Akaishidake",
            "regions":[
                  "Japanese Archipelago",
                  "Honshu"
            ],
            "countries":[
                  "Japan"
            ],
            "continent":"Asia",
            "id":155
      },
      {
            "feet":10305,
            "meters":3141,
            "latitude":35.49974,
            "longitude":138.182173,
            "name":"Arakawadake (Warusawadake)",
            "regions":[
                  "Japanese Archipelago",
                  "Honshu"
            ],
            "countries":[
                  "Japan"
            ],
            "continent":"Asia",
            "id":156
      },
      {
            "feet":8425,
            "meters":2568,
            "latitude":36.4057,
            "longitude":138.517,
            "name":"Asama Yama",
            "regions":[
                  "Japanese Archipelago",
                  "Honshu"
            ],
            "countries":[
                  "Japan"
            ],
            "continent":"Asia",
            "id":157
      },
      {
            "feet":12389,
            "meters":3776,
            "latitude":35.3667,
            "longitude":138.733,
            "name":"Fuji-san",
            "regions":[
                  "Japanese Archipelago",
                  "Honshu"
            ],
            "countries":[
                  "Japan"
            ],
            "continent":"Asia",
            "id":158
      },
      {
            "feet":9232,
            "meters":2814,
            "latitude":36.659,
            "longitude":137.752,
            "name":"Goryu Dake",
            "regions":[
                  "Japanese Archipelago",
                  "Honshu"
            ],
            "countries":[
                  "Japan"
            ],
            "continent":"Asia",
            "id":159
      },
      {
            "feet":8845,
            "meters":2696,
            "latitude":36.6904,
            "longitude":137.774,
            "name":"Happo One and Karamatsu Dake",
            "regions":[
                  "Japanese Archipelago",
                  "Honshu"
            ],
            "countries":[
                  "Japan"
            ],
            "continent":"Asia",
            "id":160
      },
      {
            "feet":10466,
            "meters":3190,
            "latitude":36.2961,
            "longitude":137.645,
            "name":"Hotakadake",
            "regions":[
                  "Japanese Archipelago",
                  "Honshu"
            ],
            "countries":[
                  "Japan"
            ],
            "continent":"Asia",
            "id":161
      },
      {
            "feet":9616,
            "meters":2931,
            "latitude":35.7822,
            "longitude":137.809,
            "name":"Houkendake",
            "regions":[
                  "Japanese Archipelago",
                  "Honshu"
            ],
            "countries":[
                  "Japan"
            ],
            "continent":"Asia",
            "id":162
      },
      {
            "feet":9318,
            "meters":2840,
            "latitude":35.702962,
            "longitude":138.304996,
            "name":"Houousan",
            "regions":[
                  "Japanese Archipelago",
                  "Honshu"
            ],
            "countries":[
                  "Japan"
            ],
            "continent":"Asia",
            "id":163
      },
      {
            "feet":8760,
            "meters":2670,
            "latitude":36.5874,
            "longitude":137.75,
            "name":"Jiigatake",
            "regions":[
                  "Japanese Archipelago",
                  "Honshu"
            ],
            "countries":[
                  "Japan"
            ],
            "continent":"Asia",
            "id":164
      },
      {
            "feet":9373,
            "meters":2857,
            "latitude":36.3266,
            "longitude":137.728,
            "name":"Jonen Dake",
            "regions":[
                  "Japanese Archipelago",
                  "Honshu"
            ],
            "countries":[
                  "Japan"
            ],
            "continent":"Asia",
            "id":165
      },
      {
            "feet":9731,
            "meters":2967,
            "latitude":35.7581,
            "longitude":138.237,
            "name":"Kai-Komagatake",
            "regions":[
                  "Japanese Archipelago",
                  "Honshu"
            ],
            "countries":[
                  "Japan"
            ],
            "continent":"Asia",
            "id":166
      },
      {
            "feet":9196,
            "meters":2803,
            "latitude":35.391429,
            "longitude":138.15239,
            "name":"Kamikouchidake",
            "regions":[
                  "Japanese Archipelago",
                  "Honshu"
            ],
            "countries":[
                  "Japan"
            ],
            "continent":"Asia",
            "id":167
      },
      {
            "feet":9478,
            "meters":2889,
            "latitude":36.6238,
            "longitude":137.747,
            "name":"Kashima Yarigatake",
            "regions":[
                  "Japanese Archipelago",
                  "Honshu"
            ],
            "countries":[
                  "Japan"
            ],
            "continent":"Asia",
            "id":168
      },
      {
            "feet":8527,
            "meters":2599,
            "latitude":35.872,
            "longitude":138.626,
            "name":"Kinpu-San",
            "regions":[
                  "Japanese Archipelago",
                  "Honshu"
            ],
            "countries":[
                  "Japan"
            ],
            "continent":"Asia",
            "id":169
      },
      {
            "feet":10474,
            "meters":3192,
            "latitude":35.6734,
            "longitude":138.239,
            "name":"Kita Dake",
            "regions":[
                  "Japanese Archipelago",
                  "Honshu"
            ],
            "countries":[
                  "Japan"
            ],
            "continent":"Asia",
            "id":170
      },
      {
            "feet":7316,
            "meters":2230,
            "latitude":35.8936,
            "longitude":138.592,
            "name":"Mizugaki Yama",
            "regions":[
                  "Japanese Archipelago",
                  "Honshu"
            ],
            "countries":[
                  "Japan"
            ],
            "continent":"Asia",
            "id":171
      },
      {
            "feet":8740,
            "meters":2664,
            "latitude":36.29,
            "longitude":137.725,
            "name":"Mt. Chogatake",
            "regions":[
                  "Japanese Archipelago",
                  "Honshu"
            ],
            "countries":[
                  "Japan"
            ],
            "continent":"Asia",
            "id":172
      },
      {
            "feet":10051,
            "meters":3063,
            "latitude":35.8833,
            "longitude":137.483,
            "name":"Ontake",
            "regions":[
                  "Japanese Archipelago",
                  "Honshu"
            ],
            "countries":[
                  "Japan"
            ],
            "continent":"Asia",
            "id":173
      },
      {
            "feet":9951,
            "meters":3033,
            "latitude":35.7195,
            "longitude":138.184,
            "name":"Senjou Dake",
            "regions":[
                  "Japanese Archipelago",
                  "Honshu"
            ],
            "countries":[
                  "Japan"
            ],
            "continent":"Asia",
            "id":174
      },
      {
            "feet":10013,
            "meters":3052,
            "latitude":35.5746,
            "longitude":138.186,
            "name":"Shiomi Dake",
            "regions":[
                  "Japanese Archipelago",
                  "Honshu"
            ],
            "countries":[
                  "Japan"
            ],
            "continent":"Asia",
            "id":175
      },
      {
            "feet":9619,
            "meters":2932,
            "latitude":36.7575,
            "longitude":137.757,
            "name":"Shirouma Dake",
            "regions":[
                  "Japanese Archipelago",
                  "Honshu"
            ],
            "countries":[
                  "Japan"
            ],
            "continent":"Asia",
            "id":176
      },
      {
            "feet":9892,
            "meters":3015,
            "latitude":36.5759,
            "longitude":137.619,
            "name":"Tateyama",
            "regions":[
                  "Japanese Archipelago",
                  "Honshu"
            ],
            "countries":[
                  "Japan"
            ],
            "continent":"Asia",
            "id":177
      },
      {
            "feet":9065,
            "meters":2763,
            "latitude":36.3996,
            "longitude":137.716,
            "name":"Tsubakuro Dake (Mt. Tsubakuro)",
            "regions":[
                  "Japanese Archipelago",
                  "Honshu"
            ],
            "countries":[
                  "Japan"
            ],
            "continent":"Asia",
            "id":178
      },
      {
            "feet":9835,
            "meters":2998,
            "latitude":36.6204,
            "longitude":137.62,
            "name":"Tsurugi Dake",
            "regions":[
                  "Japanese Archipelago",
                  "Honshu"
            ],
            "countries":[
                  "Japan"
            ],
            "continent":"Asia",
            "id":179
      },
      {
            "feet":9593,
            "meters":2924,
            "latitude":36.4116,
            "longitude":137.591,
            "name":"Washiba Dake",
            "regions":[
                  "Japanese Archipelago",
                  "Honshu"
            ],
            "countries":[
                  "Japan"
            ],
            "continent":"Asia",
            "id":180
      },
      {
            "feet":10433,
            "meters":3180,
            "latitude":36.3428,
            "longitude":137.648,
            "name":"Yarigadake",
            "regions":[
                  "Japanese Archipelago",
                  "Honshu"
            ],
            "countries":[
                  "Japan"
            ],
            "continent":"Asia",
            "id":181
      },
      {
            "feet":9511,
            "meters":2899,
            "latitude":35.97075,
            "longitude":138.37014,
            "name":"Yatsu ga Take",
            "regions":[
                  "Japanese Archipelago",
                  "Honshu"
            ],
            "countries":[
                  "Japan"
            ],
            "continent":"Asia",
            "id":182
      },
      {
            "feet":22113,
            "meters":6740,
            "latitude":28.3833,
            "longitude":98.5833,
            "name":"Kang Karpo",
            "regions":[
                  "Parallel Gorges Area"
            ],
            "continent":"Asia",
            "id":183
      },
      {
            "feet":14784,
            "meters":4506,
            "latitude":49.8067,
            "longitude":86.5908,
            "name":"Gora Belukha",
            "regions":[
                  "Mongolia Ranges",
                  "Altai"
            ],
            "countries":[
                  "Kazakhstan"
            ],
            "continent":"Asia",
            "id":184
      },
      {
            "feet":22998,
            "meters":7010,
            "latitude":42.2108,
            "longitude":80.175,
            "name":"Khan Tengri",
            "regions":[
                  "Tien Shan",
                  "Central Tien Shan"
            ],
            "countries":[
                  "Kazakhstan",
                  "Kyrgyzstan"
            ],
            "continent":"Asia",
            "id":185
      },
      {
            "feet":20997,
            "meters":6400,
            "latitude":42.281881,
            "longitude":80.267658,
            "name":"Mramornaja Stena",
            "regions":[
                  "Tien Shan"
            ],
            "countries":[
                  "Kazakhstan",
                  "China"
            ],
            "continent":"Asia",
            "id":186
      },
      {
            "feet":21771,
            "meters":6636,
            "latitude":28.021492,
            "longitude":86.872416,
            "name":"Khumbutse",
            "regions":[
                  "Himalaya ",
                  "Central Nepal Himalaya"
            ],
            "continent":"Asia",
            "id":187
      },
      {
            "feet":9003,
            "meters":2744,
            "latitude":42.0035,
            "longitude":128.031,
            "name":"Mount Baekdu ",
            "regions":[
                  "Korea",
                  "Taebaek Sanmae"
            ],
            "countries":[
                  "Korea, North",
                  "China"
            ],
            "continent":"Asia",
            "id":188
      },
      {
            "feet":16240,
            "meters":4950,
            "latitude":39.4333,
            "longitude":73.0,
            "name":"Myra I",
            "regions":[
                  "Central Asia Ranges",
                  "Pamir"
            ],
            "countries":[
                  "Kyrgyzstan"
            ],
            "continent":"Asia",
            "id":189
      },
      {
            "feet":20902,
            "meters":6371,
            "latitude":42.21145,
            "longitude":80.17479,
            "name":"Peak Chapayev",
            "regions":[
                  "Tien Shan"
            ],
            "countries":[
                  "Kyrgyzstan"
            ],
            "continent":"Asia",
            "id":190
      },
      {
            "feet":24407,
            "meters":7439,
            "latitude":42.05,
            "longitude":80.1833,
            "name":"Pik Pobeda",
            "regions":[
                  "Tien Shan",
                  "Central Tien Shan"
            ],
            "countries":[
                  "Kyrgyzstan",
                  "China"
            ],
            "continent":"Asia",
            "id":191
      },
      {
            "feet":16470,
            "meters":5020,
            "latitude":43.1,
            "longitude":77.3,
            "name":"Pik Talgar",
            "regions":[
                  "Tien Shan"
            ],
            "countries":[
                  "Kyrgyzstan"
            ],
            "continent":"Asia",
            "id":192
      },
      {
            "feet":9232,
            "meters":2814,
            "latitude":33.4106,
            "longitude":35.8572,
            "name":"Mount Hermon",
            "countries":[
                  "Lebanon"
            ],
            "continent":"Asia",
            "id":193
      },
      {
            "feet":10115,
            "meters":3083,
            "latitude":34.2333,
            "longitude":36.1,
            "name":"Qornet As Sawda",
            "regions":[
                  "Levant Ranges",
                  "Lebanon Mountains"
            ],
            "countries":[
                  "Lebanon"
            ],
            "continent":"Asia",
            "id":194
      },
      {
            "feet":22027,
            "meters":6714,
            "latitude":28.027554,
            "longitude":86.855249,
            "name":"Lingtren",
            "regions":[
                  "Himalaya ",
                  "Central Nepal Himalaya"
            ],
            "continent":"Asia",
            "id":195
      },
      {
            "feet":7123,
            "meters":2171,
            "latitude":5.134334,
            "longitude":101.342441,
            "name":"Gunung Chamah",
            "regions":[
                  "Southeast Asia",
                  "Malay Peninsula"
            ],
            "countries":[
                  "Malaysia",
                  "Malaysia"
            ],
            "continent":"Asia",
            "id":196
      },
      {
            "feet":7129,
            "meters":2173,
            "latitude":4.760776,
            "longitude":101.37351,
            "name":"Gunung Gayong",
            "regions":[
                  "Southeast Asia",
                  "Malay Peninsula"
            ],
            "countries":[
                  "Malaysia",
                  "Malaysia"
            ],
            "continent":"Asia",
            "id":197
      },
      {
            "feet":7162,
            "meters":2183,
            "latitude":4.68333,
            "longitude":101.3,
            "name":"Gunung Korbu",
            "regions":[
                  "Malay Archipelago"
            ],
            "countries":[
                  "Malaysia"
            ],
            "continent":"Asia",
            "id":198
      },
      {
            "feet":7156,
            "meters":2181,
            "latitude":4.743413,
            "longitude":101.340637,
            "name":"Gunung Yong Belar",
            "regions":[
                  "Southeast Asia",
                  "Malay Peninsula"
            ],
            "countries":[
                  "Malaysia",
                  "Malaysia"
            ],
            "continent":"Asia",
            "id":199
      },
      {
            "feet":6994,
            "meters":2132,
            "latitude":4.222048,
            "longitude":101.441402,
            "name":"Mount Batu Puteh",
            "regions":[
                  "Malay Archipelago"
            ],
            "countries":[
                  "Malaysia"
            ],
            "continent":"Asia",
            "id":200
      },
      {
            "feet":13455,
            "meters":4102,
            "latitude":6.08333,
            "longitude":116.55,
            "name":"Mount Kinabalu",
            "regions":[
                  "Malay Archipelago",
                  "Borneo"
            ],
            "countries":[
                  "Malaysia"
            ],
            "continent":"Asia",
            "id":201
      },
      {
            "feet":8461,
            "meters":2579,
            "latitude":6.21667,
            "longitude":116.65,
            "name":"Tambuyukon",
            "regions":[
                  "Malay Archipelago",
                  "Borneo"
            ],
            "countries":[
                  "Malaysia"
            ],
            "continent":"Asia",
            "id":202
      },
      {
            "feet":13009,
            "meters":3965,
            "latitude":49.70688,
            "longitude":91.3188,
            "name":"Deglii Tsagaan",
            "regions":[
                  "Mongolia Ranges",
                  "Altai"
            ],
            "countries":[
                  "Mongolia"
            ],
            "continent":"Asia",
            "id":203
      },
      {
            "feet":14350,
            "meters":4374,
            "latitude":49.149167,
            "longitude":87.825,
            "name":"Khuiten Uul",
            "regions":[
                  "Mongolia Ranges",
                  "Altai"
            ],
            "countries":[
                  "Mongolia",
                  "China"
            ],
            "continent":"Asia",
            "id":204
      },
      {
            "feet":14350,
            "meters":4374,
            "latitude":49.6167,
            "longitude":106.35,
            "name":"Mt Khuiten",
            "regions":[
                  "Tien Shan"
            ],
            "countries":[
                  "Mongolia",
                  "China"
            ],
            "continent":"Asia",
            "id":205
      },
      {
            "feet":13507,
            "meters":4117,
            "latitude":49.178,
            "longitude":87.8235,
            "name":"Nairamdal",
            "regions":[
                  "Mongolia Ranges",
                  "Altai"
            ],
            "countries":[
                  "Mongolia",
                  "Philippines"
            ],
            "continent":"Asia",
            "id":206
      },
      {
            "feet":13418,
            "meters":4090,
            "latitude":46.61768,
            "longitude":93.594063,
            "name":"Sutay Uul",
            "regions":[
                  "Mongolia Ranges",
                  "Altai"
            ],
            "countries":[
                  "Mongolia"
            ],
            "continent":"Asia",
            "id":207
      },
      {
            "feet":12920,
            "meters":3938,
            "latitude":48.64879,
            "longitude":89.15755,
            "name":"Tsengel Khairkhan Uul",
            "regions":[
                  "Mongolia Ranges",
                  "Altai"
            ],
            "countries":[
                  "Mongolia"
            ],
            "continent":"Asia",
            "id":208
      },
      {
            "feet":7408,
            "meters":2258,
            "latitude":47.700173,
            "longitude":106.920061,
            "name":"Tsetsee Gun Uul",
            "regions":[
                  "Mongolia Ranges"
            ],
            "countries":[
                  "Mongolia"
            ],
            "continent":"Asia",
            "id":209
      },
      {
            "feet":19294,
            "meters":5881,
            "latitude":28.3167,
            "longitude":97.4667,
            "name":"Hkakabo Razi",
            "regions":[
                  "Himalaya "
            ],
            "countries":[
                  "Myanmar",
                  "China"
            ],
            "continent":"Asia",
            "id":210
      },
      {
            "feet":22494,
            "meters":6856,
            "latitude":27.861111,
            "longitude":86.861111,
            "name":"Ama Dablam",
            "regions":[
                  "Himalaya ",
                  "Central Nepal Himalaya"
            ],
            "countries":[
                  "Nepal"
            ],
            "continent":"Asia",
            "id":211
      },
      {
            "feet":26040,
            "meters":7937,
            "latitude":28.534766,
            "longitude":84.121799,
            "name":"Annapurna 2",
            "regions":[
                  "Himalaya "
            ],
            "countries":[
                  "Nepal"
            ],
            "continent":"Asia",
            "id":212
      },
      {
            "feet":23684,
            "meters":7219,
            "latitude":28.518629,
            "longitude":83.805857,
            "name":"Annapurna South",
            "regions":[
                  "Himalaya ",
                  "Central Nepal Himalaya"
            ],
            "countries":[
                  "Nepal"
            ],
            "continent":"Asia",
            "id":213
      },
      {
            "feet":26545,
            "meters":8091,
            "latitude":28.584823,
            "longitude":83.989921,
            "name":"Annapurna",
            "regions":[
                  "Himalaya ",
                  "Central Nepal Himalaya"
            ],
            "countries":[
                  "Nepal"
            ],
            "continent":"Asia",
            "id":214
      },
      {
            "feet":23399,
            "meters":7132,
            "latitude":30.0,
            "longitude":80.9333,
            "name":"Api",
            "regions":[
                  "Himalaya ",
                  "Western Nepal Himalaya"
            ],
            "countries":[
                  "Nepal"
            ],
            "continent":"Asia",
            "id":215
      },
      {
            "feet":18760,
            "meters":5718,
            "latitude":28.1671,
            "longitude":85.5325,
            "name":"Baden-Powell Peak",
            "regions":[
                  "Himalaya ",
                  "Central Nepal Himalaya"
            ],
            "countries":[
                  "Nepal"
            ],
            "continent":"Asia",
            "id":216
      },
      {
            "feet":23687,
            "meters":7220,
            "latitude":27.871636,
            "longitude":86.980043,
            "name":"Baruntse",
            "regions":[
                  "Himalaya ",
                  "Central Nepal Himalaya"
            ],
            "countries":[
                  "Nepal"
            ],
            "continent":"Asia",
            "id":217
      },
      {
            "feet":24152,
            "meters":7319,
            "latitude":27.775456,
            "longitude":86.97979,
            "name":"Chamlang",
            "regions":[
                  "Himalaya ",
                  "Central Nepal Himalaya"
            ],
            "countries":[
                  "Nepal"
            ],
            "continent":"Asia",
            "id":218
      },
      {
            "feet":26906,
            "meters":8201,
            "latitude":28.094092,
            "longitude":86.6608,
            "name":"Cho Oyu",
            "regions":[
                  "Himalaya ",
                  "Central Nepal Himalaya"
            ],
            "countries":[
                  "Nepal"
            ],
            "continent":"Asia",
            "id":219
      },
      {
            "feet":21128,
            "meters":6440,
            "latitude":27.919952,
            "longitude":86.766071,
            "name":"Cholatse",
            "regions":[
                  "Himalaya ",
                  "Central Nepal Himalaya"
            ],
            "countries":[
                  "Nepal"
            ],
            "continent":"Asia",
            "id":220
      },
      {
            "feet":25650,
            "meters":7818,
            "latitude":27.93,
            "longitude":87.108056,
            "name":"Chomo Lonzo",
            "regions":[
                  "Himalaya ",
                  "Central Nepal Himalaya"
            ],
            "countries":[
                  "Nepal",
                  "China"
            ],
            "continent":"Asia",
            "id":221
      },
      {
            "feet":19879,
            "meters":6059,
            "latitude":28.7311,
            "longitude":84.0851,
            "name":"Chulu (Far) East",
            "regions":[
                  "Himalaya ",
                  "Central Nepal Himalaya"
            ],
            "countries":[
                  "Nepal"
            ],
            "continent":"Asia",
            "id":222
      },
      {
            "feet":26794,
            "meters":8167,
            "latitude":28.7,
            "longitude":83.5,
            "name":"Dhaulagiri",
            "regions":[
                  "Himalaya ",
                  "Western Nepal Himalaya"
            ],
            "countries":[
                  "Nepal"
            ],
            "continent":"Asia",
            "id":223
      },
      {
            "feet":24373,
            "meters":7429,
            "latitude":28.391551,
            "longitude":85.126963,
            "name":"Ganesh Himal",
            "regions":[
                  "Himalaya ",
                  "Central Nepal Himalaya"
            ],
            "countries":[
                  "Nepal",
                  "China"
            ],
            "continent":"Asia",
            "id":224
      },
      {
            "feet":24754,
            "meters":7545,
            "latitude":28.605339,
            "longitude":83.963475,
            "name":"Gangapurna",
            "regions":[
                  "Himalaya ",
                  "Central Nepal Himalaya"
            ],
            "countries":[
                  "Nepal"
            ],
            "continent":"Asia",
            "id":225
      },
      {
            "feet":17519,
            "meters":5357,
            "latitude":27.962089,
            "longitude":86.683214,
            "name":"Gokyo Ri",
            "regions":[
                  "Himalaya "
            ],
            "countries":[
                  "Nepal"
            ],
            "continent":"Asia",
            "id":226
      },
      {
            "feet":26089,
            "meters":7952,
            "latitude":28.1,
            "longitude":86.75,
            "name":"Gyachung Kang",
            "regions":[
                  "Himalaya ",
                  "Central Nepal Himalaya"
            ],
            "countries":[
                  "Nepal",
                  "China"
            ],
            "continent":"Asia",
            "id":227
      },
      {
            "feet":25295,
            "meters":7710,
            "latitude":27.6828,
            "longitude":88.0458,
            "name":"Jannu",
            "regions":[
                  "Himalaya ",
                  "Sikkim-Eastern Nepal Himalaya"
            ],
            "countries":[
                  "Nepal"
            ],
            "continent":"Asia",
            "id":228
      },
      {
            "feet":18192,
            "meters":5545,
            "latitude":27.995833,
            "longitude":86.828417,
            "name":"Kala Pattar",
            "regions":[
                  "Himalaya ",
                  "Central Nepal Himalaya"
            ],
            "countries":[
                  "Nepal"
            ],
            "continent":"Asia",
            "id":229
      },
      {
            "feet":25781,
            "meters":7858,
            "latitude":27.7166,
            "longitude":88.1105,
            "name":"Kangbachen",
            "regions":[
                  "Himalaya "
            ],
            "countries":[
                  "Nepal"
            ],
            "continent":"Asia",
            "id":230
      },
      {
            "feet":27904,
            "meters":8505,
            "latitude":27.705187,
            "longitude":88.136616,
            "name":"Kangchenjunga West",
            "regions":[
                  "Himalaya ",
                  "Sikkim-Eastern Nepal Himalaya"
            ],
            "countries":[
                  "Nepal"
            ],
            "continent":"Asia",
            "id":231
      },
      {
            "feet":28169,
            "meters":8586,
            "latitude":27.7025,
            "longitude":88.1483,
            "name":"Kangchenjunga",
            "regions":[
                  "Himalaya ",
                  "Sikkim-Eastern Nepal Himalaya"
            ],
            "countries":[
                  "Nepal",
                  "India"
            ],
            "continent":"Asia",
            "id":232
      },
      {
            "feet":22898,
            "meters":6979,
            "latitude":27.730869,
            "longitude":86.789031,
            "name":"Kangguru",
            "regions":[
                  "Himalaya ",
                  "Central Nepal Himalaya"
            ],
            "countries":[
                  "Nepal"
            ],
            "continent":"Asia",
            "id":233
      },
      {
            "feet":22250,
            "meters":6782,
            "latitude":27.7833,
            "longitude":86.8167,
            "name":"Kangtega",
            "regions":[
                  "Himalaya ",
                  "Central Nepal Himalaya"
            ],
            "countries":[
                  "Nepal"
            ],
            "continent":"Asia",
            "id":234
      },
      {
            "feet":22582,
            "meters":6883,
            "latitude":29.368114,
            "longitude":82.778549,
            "name":"Kanjiroba",
            "regions":[
                  "Himalaya ",
                  "Western Nepal Himalaya"
            ],
            "countries":[
                  "Nepal"
            ],
            "continent":"Asia",
            "id":235
      },
      {
            "feet":21361,
            "meters":6511,
            "latitude":27.733452,
            "longitude":86.611919,
            "name":"Karyolung",
            "regions":[
                  "Himalaya ",
                  "Central Nepal Himalaya"
            ],
            "countries":[
                  "Nepal"
            ],
            "continent":"Asia",
            "id":236
      },
      {
            "feet":22346,
            "meters":6811,
            "latitude":28.01956,
            "longitude":86.816025,
            "name":"Khangri Shar",
            "regions":[
                  "Himalaya ",
                  "Central Nepal Himalaya"
            ],
            "countries":[
                  "Nepal",
                  "China"
            ],
            "continent":"Asia",
            "id":237
      },
      {
            "feet":20888,
            "meters":6367,
            "latitude":27.730793,
            "longitude":86.788816,
            "name":"Kusum Kangguru",
            "regions":[
                  "Himalaya ",
                  "Central Nepal Himalaya"
            ],
            "countries":[
                  "Nepal"
            ],
            "continent":"Asia",
            "id":238
      },
      {
            "feet":14272,
            "meters":4350,
            "latitude":28.202465,
            "longitude":85.610447,
            "name":"Kyangjin",
            "regions":[
                  "Himalaya ",
                  "Central Nepal Himalaya"
            ],
            "countries":[
                  "Nepal"
            ],
            "continent":"Asia",
            "id":239
      },
      {
            "feet":15157,
            "meters":4620,
            "latitude":28.214945,
            "longitude":85.593667,
            "name":"Kyimoshung Ri",
            "regions":[
                  "Himalaya ",
                  "Central Nepal Himalaya"
            ],
            "countries":[
                  "Nepal"
            ],
            "continent":"Asia",
            "id":240
      },
      {
            "feet":21086,
            "meters":6427,
            "latitude":28.2169,
            "longitude":85.7136,
            "name":"Langshisha Ri",
            "regions":[
                  "Himalaya ",
                  "Central Nepal Himalaya"
            ],
            "countries":[
                  "Nepal",
                  "China"
            ],
            "continent":"Asia",
            "id":241
      },
      {
            "feet":23711,
            "meters":7227,
            "latitude":28.256111,
            "longitude":85.519444,
            "name":"Langtang Lirung",
            "regions":[
                  "Himalaya ",
                  "Central Nepal Himalaya"
            ],
            "countries":[
                  "Nepal"
            ],
            "continent":"Asia",
            "id":242
      },
      {
            "feet":27559,
            "meters":8400,
            "latitude":27.9667,
            "longitude":86.95,
            "name":"Lhotse Shar",
            "regions":[
                  "Himalaya ",
                  "Central Nepal Himalaya"
            ],
            "countries":[
                  "Nepal"
            ],
            "continent":"Asia",
            "id":243
      },
      {
            "feet":27940,
            "meters":8516,
            "latitude":27.9667,
            "longitude":86.9333,
            "name":"Lhotse",
            "regions":[
                  "Himalaya ",
                  "Central Nepal Himalaya"
            ],
            "countries":[
                  "Nepal",
                  "China"
            ],
            "continent":"Asia",
            "id":244
      },
      {
            "feet":20075,
            "meters":6119,
            "latitude":27.9595,
            "longitude":86.7899,
            "name":"Lobuche East",
            "regions":[
                  "Himalaya ",
                  "Central Nepal Himalaya"
            ],
            "countries":[
                  "Nepal"
            ],
            "continent":"Asia",
            "id":245
      },
      {
            "feet":23239,
            "meters":7083,
            "latitude":28.2,
            "longitude":85.8,
            "name":"Loengpogang",
            "regions":[
                  "Himalaya ",
                  "Central Nepal Himalaya"
            ],
            "countries":[
                  "Nepal"
            ],
            "continent":"Asia",
            "id":246
      },
      {
            "feet":27765,
            "meters":8462,
            "latitude":27.889915,
            "longitude":87.089396,
            "name":"Makalu",
            "regions":[
                  "Himalaya ",
                  "Central Nepal Himalaya"
            ],
            "countries":[
                  "Nepal",
                  "China"
            ],
            "continent":"Asia",
            "id":247
      },
      {
            "feet":26758,
            "meters":8156,
            "latitude":28.549959,
            "longitude":84.559536,
            "name":"Manaslu",
            "regions":[
                  "Himalaya ",
                  "Central Nepal Himalaya"
            ],
            "countries":[
                  "Nepal"
            ],
            "continent":"Asia",
            "id":248
      },
      {
            "feet":29035,
            "meters":8850,
            "latitude":27.9881,
            "longitude":86.9253,
            "name":"Mount Everest",
            "regions":[
                  "Himalaya ",
                  "Central Nepal Himalaya"
            ],
            "countries":[
                  "Nepal",
                  "China"
            ],
            "continent":"Asia",
            "id":249
      },
      {
            "feet":16676,
            "meters":5083,
            "latitude":27.904,
            "longitude":86.8337,
            "name":"Nangkartshang Peak",
            "regions":[
                  "Himalaya ",
                  "Central Nepal Himalaya"
            ],
            "countries":[
                  "Nepal"
            ],
            "continent":"Asia",
            "id":250
      },
      {
            "feet":19180,
            "meters":5846,
            "latitude":28.1786,
            "longitude":83.5481,
            "name":"Naya Kanga",
            "regions":[
                  "Himalaya ",
                  "Central Nepal Himalaya"
            ],
            "countries":[
                  "Nepal"
            ],
            "continent":"Asia",
            "id":251
      },
      {
            "feet":25823,
            "meters":7871,
            "latitude":28.5033,
            "longitude":84.5675,
            "name":"Ngadi Chuli",
            "regions":[
                  "Himalaya ",
                  "Central Nepal Himalaya"
            ],
            "countries":[
                  "Nepal"
            ],
            "continent":"Asia",
            "id":252
      },
      {
            "feet":25790,
            "meters":7861,
            "latitude":27.968479,
            "longitude":86.883273,
            "name":"Nuptse",
            "regions":[
                  "Himalaya ",
                  "Central Nepal Himalaya"
            ],
            "countries":[
                  "Nepal"
            ],
            "continent":"Asia",
            "id":253
      },
      {
            "feet":19741,
            "meters":6017,
            "latitude":27.9167,
            "longitude":86.6667,
            "name":"Pharilapcha",
            "regions":[
                  "Himalaya "
            ],
            "countries":[
                  "Nepal"
            ],
            "continent":"Asia",
            "id":254
      },
      {
            "feet":13336,
            "meters":4065,
            "latitude":27.5167,
            "longitude":86.4667,
            "name":"Pike",
            "countries":[
                  "Nepal"
            ],
            "continent":"Asia",
            "id":255
      },